[
  {
    "lat": "36.104881",
    "lng": "-95.973173",
    "id": 440704,
    "name": "Whole Foods Market - Brookside",
    "web": "http:\/\/www.wholefoodsmarket.com\/",
    "webdisplay": "http:\/\/www.wholefoodsmarket.com\/",
    "store_image": "\/\/cdn.shopify.com\/s\/files\/1\/2283\/7011\/t\/2\/assets\/scasl_1506602112whole-foods-market-100x99_compact.gif",
    "address": "1401 E. 41st St.",
    "country": "USA",
    "state": "OK",
    "city": "Austin",
    "postal": "74105"
  },
  {
    "lat": "36.030649",
    "lng": "-95.923665",
    "id": 440705,
    "name": "Whole Foods Market - Yale",
    "web": "http:\/\/www.wholefoodsmarket.com\/",
    "webdisplay": "http:\/\/www.wholefoodsmarket.com",
    "store_image": "\/\/cdn.shopify.com\/s\/files\/1\/2283\/7011\/t\/2\/assets\/scasl_1506602133whole-foods-market-100x99_compact.gif",
    "address": "9136 South Yale Avenue",
    "country": "USA",
    "state": "OK",
    "city": "Austin",
    "postal": "74137"
  },
  {
    "lat": "35.534181",
    "lng": "-97.530527",
    "id": 440706,
    "name": "Whole Foods Market - Oklahoma City",
    "web": "http:\/\/www.wholefoodsmarket.com\/",
    "webdisplay": "bossmanproducts.myshopify.com",
    "store_image": "\/\/cdn.shopify.com\/s\/files\/1\/2283\/7011\/t\/2\/assets\/scasl_1506602151whole-foods-market-100x99_compact.gif",
    "address": "6001 N. Western Ave.",
    "country": "USA",
    "state": "OK",
    "city": "Austin",
    "postal": "73118"
  },
  {
    "lat": "33.029818",
    "lng": "-96.796959",
    "id": 440707,
    "name": "Whole Foods Market - Plano",
    "web": "http:\/\/www.wholefoodsmarket.com\/",
    "webdisplay": "http:\/\/www.wholefoodsmarket.com",
    "store_image": "\/\/cdn.shopify.com\/s\/files\/1\/2283\/7011\/t\/2\/assets\/scasl_1506602173whole-foods-market-100x99_compact.gif",
    "address": "2201 Preston Rd",
    "country": "USA",
    "state": "TX",
    "city": "Austin",
    "postal": "75093"
  },
  {
    "lat": "32.871642",
    "lng": "-96.765722",
    "id": 440708,
    "name": "Whole Foods Market - Park Lane",
    "web": "http:\/\/www.wholefoodsmarket.com\/",
    "webdisplay": "http:\/\/www.wholefoodsmarket.com",
    "store_image": "\/\/cdn.shopify.com\/s\/files\/1\/2283\/7011\/t\/2\/assets\/scasl_1506602195whole-foods-market-100x99_compact.gif",
    "address": "8190 Park Lane, Suite 351",
    "country": "USA",
    "state": "TX",
    "city": "Austin",
    "postal": "75231"
  },
  {
    "lat": "32.795555",
    "lng": "-96.801473",
    "id": 440709,
    "name": "Whole Foods Market - Uptown Dallas",
    "web": "http:\/\/www.wholefoodsmarket.com\/",
    "webdisplay": "http:\/\/www.wholefoodsmarket.com",
    "store_image": "\/\/cdn.shopify.com\/s\/files\/1\/2283\/7011\/t\/2\/assets\/scasl_1506602213whole-foods-market-100x99_compact.gif",
    "address": "2510 McKinney Ave",
    "country": "USA",
    "state": "TX",
    "city": "Austin",
    "postal": "75201"
  },
  {
    "lat": "29.757761",
    "lng": "-95.397583",
    "id": 440710,
    "name": "Whole Foods Market - Montrose",
    "web": "http:\/\/www.wholefoodsmarket.com\/",
    "webdisplay": "http:\/\/www.wholefoodsmarket.com",
    "store_image": "\/\/cdn.shopify.com\/s\/files\/1\/2283\/7011\/t\/2\/assets\/scasl_1506602235whole-foods-market-100x99_compact.gif",
    "address": "701 Waugh Drive",
    "country": "USA",
    "state": "TX",
    "city": "Austin",
    "postal": "77019"
  },
  {
    "lat": "29.73931",
    "lng": "-95.418139",
    "id": 440711,
    "name": "Whole Foods Market - Kirby",
    "web": "http:\/\/www.wholefoodsmarket.com\/",
    "webdisplay": "http:\/\/www.wholefoodsmarket.com",
    "store_image": "\/\/cdn.shopify.com\/s\/files\/1\/2283\/7011\/t\/2\/assets\/scasl_1506602254whole-foods-market-100x99_compact.gif",
    "address": "2955 Kirby Dr",
    "country": "USA",
    "state": "TX",
    "city": "Austin",
    "postal": "77098"
  },
  {
    "lat": "29.706877",
    "lng": "-95.441641",
    "id": 440712,
    "name": "Whole Foods Market - Bellaire",
    "web": "http:\/\/www.wholefoodsmarket.com\/",
    "webdisplay": "http:\/\/www.wholefoodsmarket.com",
    "store_image": "\/\/cdn.shopify.com\/s\/files\/1\/2283\/7011\/t\/2\/assets\/scasl_1506602272whole-foods-market-100x99_compact.gif",
    "address": "4004 Bellaire Blvd",
    "country": "USA",
    "state": "TX",
    "city": "Austin",
    "postal": "77025"
  },
  {
    "lat": "29.749304",
    "lng": "-95.462209",
    "id": 440713,
    "name": "Whole Foods Market - Post Oak",
    "web": "http:\/\/www.wholefoodsmarket.com\/",
    "webdisplay": "http:\/\/www.wholefoodsmarket.com",
    "store_image": "\/\/cdn.shopify.com\/s\/files\/1\/2283\/7011\/t\/2\/assets\/scasl_1506602289whole-foods-market-100x99_compact.gif",
    "address": "1700 Post Oak Blvd",
    "country": "USA",
    "state": "TX",
    "city": "Austin",
    "postal": "77056"
  },
  {
    "lat": "29.752371",
    "lng": "-95.500108",
    "id": 440714,
    "name": "Whole Foods Market - Voss",
    "web": "http:\/\/www.wholefoodsmarket.com\/",
    "webdisplay": "http:\/\/www.wholefoodsmarket.com",
    "store_image": "\/\/cdn.shopify.com\/s\/files\/1\/2283\/7011\/t\/2\/assets\/scasl_1506602306whole-foods-market-100x99_compact.gif",
    "address": "1407 South Voss Rd",
    "country": "USA",
    "state": "TX",
    "city": "Austin",
    "postal": "77057"
  },
  {
    "lat": "30.168862",
    "lng": "-95.470833",
    "id": 440715,
    "name": "Whole Foods Market - The Woodlands",
    "web": "http:\/\/www.wholefoodsmarket.com\/",
    "webdisplay": "http:\/\/www.wholefoodsmarket.com",
    "store_image": "\/\/cdn.shopify.com\/s\/files\/1\/2283\/7011\/t\/2\/assets\/scasl_1506602324whole-foods-market-100x99_compact.gif",
    "address": "1925 Hughes Landing Blvd.",
    "country": "USA",
    "state": "TX",
    "city": "Austin",
    "postal": "77380"
  },
  {
    "lat": "29.736663",
    "lng": "-95.570746",
    "id": 440716,
    "name": "Whole Foods Market - West Chase",
    "web": "http:\/\/www.wholefoodsmarket.com\/",
    "webdisplay": "http:\/\/www.wholefoodsmarket.com",
    "store_image": "\/\/cdn.shopify.com\/s\/files\/1\/2283\/7011\/t\/2\/assets\/scasl_1506602341whole-foods-market-100x99_compact.gif",
    "address": "11041 Westheimer Street",
    "country": "USA",
    "state": "TX",
    "city": "Austin",
    "postal": "77042"
  },
  {
    "lat": "29.600024",
    "lng": "-95.623101",
    "id": 440717,
    "name": "Whole Foods Market - Sugar Land",
    "web": "http:\/\/www.wholefoodsmarket.com\/",
    "webdisplay": "http:\/\/www.wholefoodsmarket.com",
    "store_image": "\/\/cdn.shopify.com\/s\/files\/1\/2283\/7011\/t\/2\/assets\/scasl_1506602359whole-foods-market-100x99_compact.gif",
    "address": "15900 Southwest Freeway",
    "country": "USA",
    "state": "TX",
    "city": "Austin",
    "postal": "77478"
  },
  {
    "lat": "29.734658",
    "lng": "-95.572649",
    "id": 440718,
    "name": "Whole Foods Market - Wilcrest",
    "web": "http:\/\/www.wholefoodsmarket.com\/",
    "webdisplay": "http:\/\/www.wholefoodsmarket.com",
    "store_image": "\/\/cdn.shopify.com\/s\/files\/1\/2283\/7011\/t\/2\/assets\/scasl_1506602377whole-foods-market-100x99_compact.gif",
    "address": "11145 Westheimer Rd",
    "country": "USA",
    "state": "TX",
    "city": "Austin",
    "postal": "77042"
  },
  {
    "lat": "29.998459",
    "lng": "-95.56224",
    "id": 440719,
    "name": "Whole Foods Market - Champions",
    "web": "http:\/\/www.wholefoodsmarket.com\/",
    "webdisplay": "http:\/\/www.wholefoodsmarket.com",
    "store_image": "\/\/cdn.shopify.com\/s\/files\/1\/2283\/7011\/t\/2\/assets\/scasl_1506602394whole-foods-market-100x99_compact.gif",
    "address": "10133 Louetta Road",
    "country": "USA",
    "state": "TX",
    "city": "Austin",
    "postal": "77070"
  },
  {
    "lat": "29.712471",
    "lng": "-95.771357",
    "id": 440720,
    "name": "Whole Foods Market - Katy",
    "web": "http:\/\/www.wholefoodsmarket.com\/",
    "webdisplay": "http:\/\/www.wholefoodsmarket.com",
    "store_image": "\/\/cdn.shopify.com\/s\/files\/1\/2283\/7011\/t\/2\/assets\/scasl_1506602412whole-foods-market-100x99_compact.gif",
    "address": "6601 S. Fry Road",
    "country": "USA",
    "state": "TX",
    "city": "Austin",
    "postal": "77494"
  },
  {
    "lat": "29.497832",
    "lng": "-98.481046",
    "id": 440721,
    "name": "Whole Foods Market - San Antonio",
    "web": "http:\/\/www.wholefoodsmarket.com\/",
    "webdisplay": "http:\/\/www.wholefoodsmarket.com",
    "store_image": "\/\/cdn.shopify.com\/s\/files\/1\/2283\/7011\/t\/2\/assets\/scasl_1506602430whole-foods-market-100x99_compact.gif",
    "address": "255 E. Basse Rd, Ste. 130",
    "country": "USA",
    "state": "TX",
    "city": "Austin",
    "postal": "78209"
  },
  {
    "lat": "30.307515",
    "lng": "-97.937732",
    "id": 440722,
    "name": "Whole Foods Market - Bee Cave",
    "web": "http:\/\/www.wholefoodsmarket.com\/",
    "webdisplay": "http:\/\/www.wholefoodsmarket.com",
    "store_image": "\/\/cdn.shopify.com\/s\/files\/1\/2283\/7011\/t\/2\/assets\/scasl_1506602447whole-foods-market-100x99_compact.gif",
    "address": "12601 Hill Country Blvd",
    "country": "USA",
    "state": "TX",
    "city": "Austin",
    "postal": "78738"
  },
  {
    "lat": "30.406269",
    "lng": "-97.720267",
    "id": 440723,
    "name": "Whole Foods Market - The Domain",
    "web": "http:\/\/www.wholefoodsmarket.com\/",
    "webdisplay": "http:\/\/www.wholefoodsmarket.com",
    "store_image": "\/\/cdn.shopify.com\/s\/files\/1\/2283\/7011\/t\/2\/assets\/scasl_1506602465whole-foods-market-100x99_compact.gif",
    "address": "11920 Domain Drive",
    "country": "USA",
    "state": "TX",
    "city": "Austin",
    "postal": "78758"
  },
  {
    "lat": "30.388399",
    "lng": "-97.741403",
    "id": 440724,
    "name": "Whole Foods Market - Gateway",
    "web": "http:\/\/www.wholefoodsmarket.com\/",
    "webdisplay": "http:\/\/www.wholefoodsmarket.com",
    "store_image": "\/\/cdn.shopify.com\/s\/files\/1\/2283\/7011\/t\/2\/assets\/scasl_1506602483whole-foods-market-100x99_compact.gif",
    "address": "9607 Research Blvd.",
    "country": "USA",
    "state": "TX",
    "city": "Austin",
    "postal": "78759"
  },
  {
    "lat": "30.219645",
    "lng": "-97.841645",
    "id": 440725,
    "name": "Whole Foods Market - Arbor Trails",
    "web": "http:\/\/www.wholefoodsmarket.com\/",
    "webdisplay": "http:\/\/www.wholefoodsmarket.com",
    "store_image": "\/\/cdn.shopify.com\/s\/files\/1\/2283\/7011\/t\/2\/assets\/scasl_1506602500whole-foods-market-100x99_compact.gif",
    "address": "4301 W. William Cannon",
    "country": "USA",
    "state": "TX",
    "city": "Austin",
    "postal": "78749"
  },
  {
    "lat": "30.270736",
    "lng": "-97.753296",
    "id": 440726,
    "name": "Whole Foods Market - Lamar",
    "web": "http:\/\/www.wholefoodsmarket.com\/",
    "webdisplay": "http:\/\/www.wholefoodsmarket.com",
    "store_image": "\/\/cdn.shopify.com\/s\/files\/1\/2283\/7011\/t\/2\/assets\/scasl_1506602518whole-foods-market-100x99_compact.gif",
    "address": "525 N Lamar Blvd.",
    "country": "USA",
    "state": "TX",
    "city": "Austin",
    "postal": "78703"
  },
  {
    "lat": "30.27591",
    "lng": "-97.765445",
    "id": 440727,
    "name": "Redd's Barber Shop Austin",
    "web": "https:\/\/reddsbarbershop.com\/",
    "webdisplay": "https:\/\/reddsbarbershop.com",
    "store_image": "\/\/cdn.shopify.com\/s\/files\/1\/2283\/7011\/t\/2\/assets\/scasl_1506602547redds-barber-shop-austin-texas-100x99_compact.gif",
    "address": "1717 W. 6th St STE 130",
    "country": "USA",
    "state": "TX",
    "city": "Austin",
    "postal": "78703"
  },
  {
    "lat": "32.940309",
    "lng": "-97.119066",
    "id": 440728,
    "name": "Finley's Dallas\/Fort Worth",
    "web": "http:\/\/finleysformen.com\/",
    "webdisplay": "http:\/\/finleysformen.com",
    "store_image": "\/\/cdn.shopify.com\/s\/files\/1\/2283\/7011\/t\/2\/assets\/scasl_1506602565finleys-barber-shop-austin-texas-1-100x99_compact.gif",
    "address": "2175 E. Southlake Blvd. STE 110",
    "country": "USA",
    "state": "TX",
    "city": "Austin",
    "postal": "76092"
  },
  {
    "lat": "33.028168",
    "lng": "-96.793646",
    "id": 440729,
    "name": "Finley's Dallas",
    "web": "http:\/\/finleysformen.com\/",
    "webdisplay": "http:\/\/finleysformen.com",
    "store_image": "\/\/cdn.shopify.com\/s\/files\/1\/2283\/7011\/t\/2\/assets\/scasl_1506602584finleys-barber-shop-austin-texas-1-100x99_compact.gif",
    "address": "2100 Preston Rd. STE 612",
    "country": "USA",
    "state": "TX",
    "city": "Austin",
    "postal": "75093"
  },
  {
    "lat": "30.291761",
    "lng": "-97.826301",
    "id": 440730,
    "name": "Finley's Westlake",
    "web": "http:\/\/finleysformen.com",
    "webdisplay": "http:\/\/finleysformen.com",
    "store_image": "\/\/cdn.shopify.com\/s\/files\/1\/2283\/7011\/t\/2\/assets\/scasl_1506602602finleys-barber-shop-austin-texas-1-100x99_compact.gif",
    "address": "701 S. Capital of Texas Hwy STE F620",
    "country": "USA",
    "state": "TX",
    "city": "Austin",
    "postal": "78746"
  },
  {
    "lat": "30.25518",
    "lng": "-97.762402",
    "id": 440731,
    "name": "Finley's Austin",
    "web": "http:\/\/finleysformen.com\/",
    "webdisplay": "http:\/\/finleysformen.com",
    "store_image": "\/\/cdn.shopify.com\/s\/files\/1\/2283\/7011\/t\/2\/assets\/scasl_1506602619finleys-barber-shop-austin-texas-1-100x99_compact.gif",
    "address": "1100 S. Lamar Blvd.",
    "country": "USA",
    "state": "TX",
    "city": "Austin",
    "postal": "78704"
  },
  {
    "lat": "30.355366",
    "lng": "-97.96187",
    "id": 440732,
    "name": "Finley's Lakeway",
    "web": "http:\/\/finleysformen.com",
    "webdisplay": "http:\/\/finleysformen.com",
    "store_image": "\/\/cdn.shopify.com\/s\/files\/1\/2283\/7011\/t\/2\/assets\/scasl_1506602638finleys-barber-shop-austin-texas-1-100x99_compact.gif",
    "address": "900 Ranch Rd. 620 S. STEA 108",
    "country": "USA",
    "state": "TX",
    "city": "Austin",
    "postal": "78734"
  },
  {
    "lat": "30.341443",
    "lng": "-97.738221",
    "id": 440733,
    "name": "Finley's Austin",
    "web": "http:\/\/finleysformen.com\/",
    "webdisplay": "http:\/\/finleysformen.com",
    "store_image": "\/\/cdn.shopify.com\/s\/files\/1\/2283\/7011\/t\/2\/assets\/scasl_1506602656finleys-barber-shop-austin-texas-1-100x99_compact.gif",
    "address": "6555 Burnet Rd. STE 300",
    "country": "USA",
    "state": "TX",
    "city": "Austin",
    "postal": "78757"
  },
  {
    "lat": "30.497556",
    "lng": "-97.773776",
    "id": 440734,
    "name": "Finley's Austin",
    "web": "http:\/\/finleysformen.com\/",
    "webdisplay": "http:\/\/finleysformen.com",
    "store_image": "\/\/cdn.shopify.com\/s\/files\/1\/2283\/7011\/t\/2\/assets\/scasl_1506602673finleys-barber-shop-austin-texas-1-100x99_compact.gif",
    "address": "10526 W. Parmer Ln.",
    "country": "USA",
    "state": "TX",
    "city": "Austin",
    "postal": "78717"
  },
  {
    "lat": "30.265639",
    "lng": "-97.74587",
    "id": 440735,
    "name": "Finley's Austin",
    "web": "http:\/\/finleysformen.com\/",
    "webdisplay": "http:\/\/finleysformen.com",
    "store_image": "\/\/cdn.shopify.com\/s\/files\/1\/2283\/7011\/t\/2\/assets\/scasl_1506602690finleys-barber-shop-austin-texas-1-100x99_compact.gif",
    "address": "237 W. 3rd St.",
    "country": "USA",
    "state": "TX",
    "city": "Austin",
    "postal": "78701"
  },
  {
    "lat": "30.23512",
    "lng": "-97.791278",
    "id": 440736,
    "name": "Wheatsville Austin",
    "store_image": "\/\/cdn.shopify.com\/s\/files\/1\/2283\/7011\/t\/2\/assets\/scasl_1506602708wheatsville-austin-texas-100x99_compact.gif",
    "address": "4001 S. Lamar Blvd.",
    "country": "USA",
    "state": "TX",
    "city": "Austin",
    "postal": "78704"
  },
  {
    "lat": "30.297615",
    "lng": "-97.741044",
    "id": 440737,
    "name": "Wheatsville Austin",
    "phone": "781-264-0749",
    "store_image": "\/\/cdn.shopify.com\/s\/files\/1\/2283\/7011\/t\/2\/assets\/scasl_1506602725wheatsville-austin-texas-100x99_compact.gif",
    "address": "3101 Guadalupe St.",
    "country": "USA",
    "state": "TX",
    "city": "Austin",
    "postal": "78705"
  }
]